City_ID,City,Lat,Lng,Max Temp,Humidity,Cloudiness,Wind Speed,Country,Date
0,mamuju,-2.6748,118.8885,299.07,88,100,2.52,ID,2024-02-02
1,adamstown,-25.066,-130.1015,297.71,83,68,4.54,PN,2024-02-02
2,ushuaia,-54.8,-68.3,278.94,98,100,1.18,AR,2024-02-02
3,fortuna,40.5982,-124.1573,282.4,96,20,0.0,US,2024-02-02
4,hammerfest,70.6634,23.6821,265.4,79,0,1.03,NO,2024-02-02
5,ancud,-41.8697,-73.8203,289.26,94,52,5.23,CL,2024-02-02
6,necochea,-38.5473,-58.7368,308.13,28,100,4.23,AR,2024-02-02
7,rawah,34.4816,41.9093,283.04,52,2,2.2,IQ,2024-02-02
8,edinburgh of the seven seas,-37.0676,-12.3116,292.14,93,16,6.15,SH,2024-02-02
9,bilibino,68.0546,166.4372,242.05,93,39,2.31,RU,2024-02-02
10,taksimo,56.3444,114.8794,248.12,94,100,0.34,RU,2024-02-02
11,susuman,62.7833,148.1667,239.81,100,95,1.34,RU,2024-02-02
12,jamestown,42.097,-79.2353,276.77,94,100,3.6,US,2024-02-02
13,luwuk,-0.9516,122.7875,299.27,84,100,1.36,ID,2024-02-02
14,blackmans bay,-43.0167,147.3167,283.22,78,5,0.45,AU,2024-02-02
15,port-aux-francais,-49.35,70.2167,280.88,96,57,7.81,TF,2024-02-02
16,priob'ye,62.5206,65.5964,255.39,96,100,5.05,RU,2024-02-02
17,carutapera,-1.195,-46.02,300.72,85,28,2.92,BR,2024-02-02
18,albany,42.6001,-73.9662,278.07,77,100,0.89,US,2024-02-02
19,ust-nera,64.5667,143.2,245.18,100,100,1.39,RU,2024-02-02
20,papatowai,-46.5619,169.4708,281.15,80,100,3.91,NZ,2024-02-02
21,margaret river,-33.95,115.0667,291.0,95,88,3.61,AU,2024-02-02
22,machina,13.1364,10.0492,293.92,15,1,4.42,NG,2024-02-02
23,afaahiti,-17.75,-149.2833,302.08,75,100,4.37,PF,2024-02-02
24,port alfred,-33.5906,26.891,297.49,84,100,10.48,ZA,2024-02-02
25,longyearbyen,78.2186,15.6401,262.06,79,75,2.57,SJ,2024-02-02
26,gamay,12.3854,125.2979,297.8,91,87,2.64,PH,2024-02-02
27,rosetta,31.4044,30.4164,286.85,71,61,4.29,EG,2024-02-02
28,grytviken,-54.2811,-36.5092,280.47,53,95,8.3,GS,2024-02-02
29,college,64.8569,-147.8028,230.12,61,75,0.0,US,2024-02-02
30,xai-xai,-25.0519,33.6442,296.78,77,78,3.08,MZ,2024-02-02
31,forster,-32.1667,152.5167,294.42,79,67,4.03,AU,2024-02-02
32,bethel,41.3712,-73.414,279.35,81,100,4.12,US,2024-02-02
33,vorgashor,67.5833,63.95,256.25,92,100,2.82,RU,2024-02-02
34,brazil,39.5237,-87.125,283.37,72,20,5.14,US,2024-02-02
35,santa cruz,-17.8,-63.1667,311.35,23,7,2.19,BO,2024-02-02
36,thompson,55.7435,-97.8558,272.24,93,100,3.6,CA,2024-02-02
37,gunnison,38.7,-107.0673,275.88,73,100,1.38,US,2024-02-02
38,takoradi,4.8845,-1.7554,300.62,83,0,4.0,GH,2024-02-02
39,oskarshamn,57.2645,16.4484,280.92,81,100,8.33,SE,2024-02-02
40,kongens lyngby,55.7704,12.5038,281.23,89,100,9.26,DK,2024-02-02
41,bardai,11.65,7.2333,293.56,18,9,4.26,NG,2024-02-02
42,howard springs,-12.497,131.047,301.1,93,100,5.17,AU,2024-02-02
43,magadan,59.5667,150.8,248.44,79,100,2.92,RU,2024-02-02
44,aylmer,42.7668,-80.983,275.96,56,12,2.97,CA,2024-02-02
45,funafuti,-8.5243,179.1942,303.15,79,100,3.09,TV,2024-02-02
46,aripuana,-9.1667,-60.6333,300.94,82,100,0.76,BR,2024-02-02
47,bredasdorp,-34.5322,20.0403,295.33,85,3,3.32,ZA,2024-02-02
48,hobyo,5.3505,48.5268,298.96,77,89,6.22,SO,2024-02-02
49,kyshtovka,56.555,76.6271,261.67,98,100,0.89,RU,2024-02-02
50,yellowknife,62.456,-114.3525,262.75,95,100,3.6,CA,2024-02-02
51,petropavlovsk-kamchatsky,53.0452,158.6483,253.4,75,0,4.47,RU,2024-02-02
52,tiksi,71.6872,128.8694,246.57,100,87,1.63,RU,2024-02-02
53,waitangi,-43.9535,-176.5597,290.83,93,100,2.24,NZ,2024-02-02
54,pacocha,-17.5833,-71.3333,299.23,61,0,5.14,PE,2024-02-02
55,udachny,66.4167,112.4,243.14,77,96,1.31,RU,2024-02-02
56,remire-montjoly,4.9167,-52.2667,302.17,70,100,4.63,GF,2024-02-02
57,pineville,31.3224,-92.4343,296.06,52,0,3.6,US,2024-02-02
58,vilyuchinsk,52.9306,158.4028,254.22,82,11,4.45,RU,2024-02-02
59,katsuura,35.1333,140.3,279.11,56,100,5.85,JP,2024-02-02
60,puerto ayora,-0.7393,-90.3518,304.13,79,92,5.48,EC,2024-02-02
61,reyes,-14.3167,-67.3833,309.24,52,20,0.0,BO,2024-02-02
62,laguna,38.421,-121.4238,286.64,87,100,5.66,US,2024-02-02
63,haiku-pauwela,20.9219,-156.3051,293.17,94,100,5.66,US,2024-02-02
64,tortoli,39.9256,9.6572,285.05,87,20,5.14,IT,2024-02-02
65,happy valley-goose bay,53.3168,-60.3315,260.32,43,20,5.14,CA,2024-02-02
66,puerto armuelles,8.2833,-82.8667,304.14,71,100,1.79,PA,2024-02-02
67,ta`u,-14.2336,-169.5144,301.54,79,100,5.51,AS,2024-02-02
68,juba,4.8517,31.5825,303.18,21,100,3.32,SS,2024-02-02
69,chonchi,-42.6128,-73.8092,294.33,47,67,4.23,CL,2024-02-02
70,utrik,11.2278,169.8474,299.38,87,99,10.02,MH,2024-02-02
71,faya-largeau,17.9257,19.1043,289.23,16,1,6.2,TD,2024-02-02
72,dunoon,55.947,-4.923,285.1,91,100,3.13,GB,2024-02-02
73,ulsteinvik,62.3432,5.8487,284.12,86,100,13.41,NO,2024-02-02
74,ingeniero jacobacci,-41.3427,-69.5448,298.83,24,15,13.6,AR,2024-02-02
75,luderitz,-26.6481,15.1594,293.5,88,100,3.13,NA,2024-02-02
76,port mathurin,-19.6833,63.4167,300.6,78,100,10.57,MU,2024-02-02
77,georgetown,5.4112,100.3354,301.11,88,20,1.54,MY,2024-02-02
78,puerto aysen,-45.4,-72.7,289.41,73,85,4.13,CL,2024-02-02
79,invercargill,-46.4,168.35,282.05,91,98,2.68,NZ,2024-02-02
80,murun-kuren,49.6342,100.1625,252.47,92,100,0.57,MN,2024-02-02
81,port augusta,-32.5,137.7667,295.0,60,0,2.8,AU,2024-02-02
82,sinabang,2.4803,96.3801,299.51,81,91,0.9,ID,2024-02-02
83,labrador city,52.9463,-66.9114,258.1,47,20,1.54,CA,2024-02-02
84,amga,60.8953,131.9608,236.62,100,100,0.97,RU,2024-02-02
85,aasiaat,68.7098,-52.8699,248.14,98,100,2.47,GL,2024-02-02
86,rio grande,-32.035,-52.0986,303.21,61,0,7.22,BR,2024-02-02
87,inhambane,-23.865,35.3833,297.76,77,100,3.6,MZ,2024-02-02
88,rongelap,11.1635,166.8941,299.58,85,100,10.18,MH,2024-02-02
89,sabang,5.8933,95.3214,300.97,74,16,3.52,ID,2024-02-02
90,christchurch,-43.5333,172.6333,285.88,78,100,1.03,NZ,2024-02-02
91,tura,25.5198,90.2201,286.51,55,0,0.64,IN,2024-02-02
92,mantua,45.1667,10.7833,279.73,67,14,1.34,IT,2024-02-02
93,peace river,56.2501,-117.286,273.32,93,100,2.06,CA,2024-02-02
94,mejit,10.2753,170.8646,299.71,87,97,9.99,MH,2024-02-02
95,la peca,-5.6111,-78.435,303.28,55,93,0.9,PE,2024-02-02
96,salina cruz,16.1667,-95.2,301.56,52,15,5.72,MX,2024-02-02
97,el granada,37.5027,-122.4694,287.15,80,75,6.17,US,2024-02-02
98,bodaybo,57.8506,114.1933,248.78,98,100,0.22,RU,2024-02-02
99,olonkinbyen,70.9221,-8.7187,267.84,59,100,8.52,SJ,2024-02-02
100,alice springs,-23.7,133.8833,302.16,20,99,2.57,AU,2024-02-02
101,lompoc,34.6391,-120.4579,288.71,56,40,4.12,US,2024-02-02
102,acapulco de juarez,16.8634,-99.8901,303.05,54,0,6.17,MX,2024-02-02
103,guadalupe,25.6833,-100.25,305.57,38,0,6.71,MX,2024-02-02
104,choibalsan,48.0667,114.5,244.26,90,5,2.22,MN,2024-02-02
105,iskateley,67.6803,53.1512,267.05,89,100,10.28,RU,2024-02-02
106,shanhaiguan,39.9988,119.7564,267.96,42,100,2.18,CN,2024-02-02
107,karasburg,-28.0167,18.75,303.46,33,76,2.82,NA,2024-02-02
108,guaruja,-23.9931,-46.2564,294.07,94,40,2.06,BR,2024-02-02
109,imbituva,-25.23,-50.6044,302.49,33,34,2.17,BR,2024-02-02
110,korla,41.7597,86.1469,268.12,81,92,2.08,CN,2024-02-02
111,puerto baquerizo moreno,-0.9,-89.6,302.7,79,40,2.06,EC,2024-02-02
112,ghat,24.9647,10.1728,286.15,23,54,1.91,LY,2024-02-02
113,ariquemes,-9.9133,-63.0408,305.2,57,100,0.55,BR,2024-02-02
114,ilulissat,69.2167,-51.1,251.16,64,75,7.2,GL,2024-02-02
115,greenville,35.6127,-77.3663,291.24,46,40,6.69,US,2024-02-02
116,shetpe,44.1667,52.1167,275.79,90,100,4.92,KZ,2024-02-02
117,atafu village,-8.5421,-172.5159,302.02,76,100,5.25,TK,2024-02-02
118,brisas de zicatela,15.8369,-97.0419,302.44,65,40,5.14,MX,2024-02-02
119,puerto natales,-51.7236,-72.4875,283.4,93,75,4.63,CL,2024-02-02
120,lihue,21.9789,-159.3672,295.73,73,20,7.72,US,2024-02-02
121,sadri,25.1833,73.4333,291.49,40,11,2.5,IN,2024-02-02
122,san patricio,28.017,-97.5169,298.07,71,100,7.68,US,2024-02-02
123,fort saskatchewan,53.7168,-113.2187,275.7,98,100,2.06,CA,2024-02-02
124,punta arenas,-53.15,-70.9167,278.21,93,100,6.69,CL,2024-02-02
125,sisimiut,66.9395,-53.6735,250.94,96,98,3.92,GL,2024-02-02
126,ribeira grande,38.5167,-28.7,290.8,94,40,4.63,PT,2024-02-02
127,urucara,-2.5364,-57.76,297.49,95,100,0.97,BR,2024-02-02
128,kenora,49.8167,-94.4337,270.69,93,100,3.09,CA,2024-02-02
129,barkhan,29.8977,69.5256,283.19,55,100,1.5,PK,2024-02-02
130,apolinario saravia,-24.4328,-63.9954,314.67,19,0,4.45,AR,2024-02-02
131,la passe,45.5549,-0.8967,283.14,89,15,2.9,FR,2024-02-02
132,namibe,-15.1961,12.1522,298.46,86,100,2.6,AO,2024-02-02
133,pyapon,16.2833,95.6833,294.16,67,5,2.75,MM,2024-02-02
134,iqaluit,63.7506,-68.5145,248.0,62,20,6.17,CA,2024-02-02
135,kaoma,-14.7833,24.8,292.0,88,47,2.35,ZM,2024-02-02
136,coquimbo,-29.9533,-71.3436,293.0,77,40,6.17,CL,2024-02-02
137,kundiawa,-6.0167,144.9667,290.04,98,99,1.12,PG,2024-02-02
138,kingston,17.997,-76.7936,302.13,69,40,2.57,JM,2024-02-02
139,keflavik,64.0049,-22.5624,271.1,86,75,22.12,IS,2024-02-02
140,port lincoln,-34.7333,135.8667,291.21,88,0,2.83,AU,2024-02-02
141,touros,-5.1989,-35.4608,302.58,66,12,7.14,BR,2024-02-02
142,nabire,-3.3667,135.4833,297.93,93,100,0.75,ID,2024-02-02
143,tamanrasset,22.785,5.5228,288.1,14,0,2.06,DZ,2024-02-02
144,nema,57.5067,50.5011,269.27,96,100,3.73,RU,2024-02-02
145,chateaubelair,13.2833,-61.25,300.44,78,40,2.57,VC,2024-02-02
146,mosjoen,65.836,13.1908,275.21,93,100,4.63,NO,2024-02-02
147,dudinka,69.4058,86.1778,259.64,93,100,10.73,RU,2024-02-02
148,whitehorse,60.7161,-135.0538,249.58,64,20,2.06,CA,2024-02-02
149,prince george,53.9166,-122.753,280.84,85,0,5.66,CA,2024-02-02
150,hermanus,-34.4187,19.2345,296.22,79,0,2.98,ZA,2024-02-02
151,avarua,-21.2078,-159.775,301.18,89,100,1.03,CK,2024-02-02
152,apac,1.9756,32.5386,299.51,47,100,0.89,UG,2024-02-02
153,walvis bay,-22.9575,14.5053,293.68,83,100,0.0,NA,2024-02-02
154,tarko-sale,64.9225,77.785,259.69,92,100,5.49,RU,2024-02-02
155,kwang binh,17.4833,106.6,294.63,95,5,2.74,VN,2024-02-02
156,fort mcmurray,56.7268,-111.381,272.92,93,100,2.57,CA,2024-02-02
157,bamboo flat,11.7,92.7167,299.2,89,20,1.03,IN,2024-02-02
158,thurso,58.5927,-3.5259,284.29,78,88,15.37,GB,2024-02-02
159,yangchun,22.1667,111.7833,293.56,92,100,0.89,CN,2024-02-02
160,pitimbu,-7.4706,-34.8086,304.48,69,100,6.39,BR,2024-02-02
161,mpraeso,6.5932,-0.7346,300.83,25,3,1.25,GH,2024-02-02
162,dunedin,-45.8742,170.5036,284.71,72,63,0.89,NZ,2024-02-02
163,jackson,42.4165,-122.8345,282.25,79,40,1.54,US,2024-02-02
164,great falls,47.5002,-111.3008,285.75,50,100,0.0,US,2024-02-02
165,valparaiso,-33.0393,-71.6273,311.01,35,17,9.26,CL,2024-02-02
166,kayangel,8.0823,134.7173,300.51,78,90,9.59,PW,2024-02-02
167,stanley,54.868,-1.6985,284.92,86,75,9.77,GB,2024-02-02
168,beruniy,41.6911,60.7525,270.13,93,0,2.06,UZ,2024-02-02
169,tarinkot,32.6268,65.8733,280.08,87,100,1.24,AF,2024-02-02
170,uturoa,-16.7333,-151.4333,300.89,78,99,4.86,PF,2024-02-02
171,monrovia,6.3005,-10.7969,302.02,82,15,4.9,LR,2024-02-02
172,port-vila,-17.7338,168.3219,300.93,89,75,1.54,VU,2024-02-02
173,grants,35.1473,-107.8514,277.28,65,100,6.17,US,2024-02-02
174,enewetak,11.3474,162.3373,299.56,83,100,10.86,MH,2024-02-02
175,hithadhoo,-0.6,73.0833,301.75,75,29,4.95,MV,2024-02-02
176,noumea,-22.2763,166.4572,299.14,86,69,2.44,NC,2024-02-02
177,east london,-33.0153,27.9116,297.75,82,100,9.65,ZA,2024-02-02
178,wailua homesteads,22.0669,-159.378,295.39,73,20,7.72,US,2024-02-02
179,holualoa,19.6228,-155.9522,293.06,98,100,5.66,US,2024-02-02
180,pozo del molle,-32.0186,-62.9198,312.83,12,0,5.16,AR,2024-02-02
181,timbuktu,16.7735,-3.0074,296.65,10,100,5.49,ML,2024-02-02
182,noosa heads,-26.3833,153.15,296.12,81,5,1.16,AU,2024-02-02
183,isafjordur,66.0755,-23.124,268.42,69,89,5.47,IS,2024-02-02
184,sittwe,20.15,92.9,293.53,67,0,3.93,MM,2024-02-02
185,kodiak,57.79,-152.4072,261.88,79,0,3.6,US,2024-02-02
186,yinchuan,38.4681,106.2731,270.85,87,98,1.82,CN,2024-02-02
187,west island,-12.1568,96.8225,300.14,89,40,1.54,CC,2024-02-02
188,sao vicente,-23.9631,-46.3919,299.25,94,40,2.06,BR,2024-02-02
189,pierre,44.3683,-100.351,274.74,97,100,9.39,US,2024-02-02
190,ketchikan,55.3422,-131.6461,274.14,80,40,3.6,US,2024-02-02
191,hawaiian paradise park,19.5933,-154.9731,296.5,87,100,5.66,US,2024-02-02
192,chichihualco,17.6833,-99.65,301.65,36,16,0.42,MX,2024-02-02
193,cabo san lucas,22.8909,-109.9124,300.16,57,0,7.2,MX,2024-02-02
194,juneau,58.3019,-134.4197,266.71,97,100,0.0,US,2024-02-02
195,ciudad constitucion,25.0369,-111.6644,296.44,45,0,8.49,MX,2024-02-02
196,mount pearl,47.5166,-52.7813,272.57,82,100,4.12,CA,2024-02-02
197,anadyr,64.75,177.4833,258.43,51,100,10.0,RU,2024-02-02
198,ad-damazin,11.7891,34.3592,299.85,15,100,5.79,SD,2024-02-02
199,mersa matruh,31.3525,27.2453,285.26,71,40,5.14,EG,2024-02-02
200,nahrin,36.0649,69.1334,277.33,54,95,4.93,AF,2024-02-02
201,pisco,-13.7,-76.2167,302.18,58,0,8.75,PE,2024-02-02
202,shahrak,34.1074,64.3052,269.49,94,70,3.62,AF,2024-02-02
203,taoudenni,22.6783,-3.9836,295.14,14,57,4.97,ML,2024-02-02
204,hasaki,35.7333,140.8333,274.37,52,29,6.47,JP,2024-02-02
205,thunder bay,48.4001,-89.3168,272.14,69,0,3.09,CA,2024-02-02
206,bandarbeyla,9.4942,50.8122,297.57,79,100,3.85,SO,2024-02-02
207,badger,64.8,-147.5333,230.08,62,0,0.0,US,2024-02-02
208,delijan,33.9905,50.6838,271.22,80,94,2.26,IR,2024-02-02
209,darwin,-12.4611,130.8418,301.14,86,75,7.72,AU,2024-02-02
210,uliastay,47.7417,96.8444,254.58,63,98,3.55,MN,2024-02-02
211,dalhart,36.0595,-102.5133,285.65,82,75,3.6,US,2024-02-02
212,weno,7.4515,151.8468,301.12,89,100,5.14,FM,2024-02-02
213,kievka,50.2619,71.5514,261.97,94,100,7.54,KZ,2024-02-02
214,talcahuano,-36.7167,-73.1167,297.97,57,20,8.75,CL,2024-02-02
215,guerrero negro,27.9769,-114.0611,291.73,54,1,6.54,MX,2024-02-02
216,poronaysk,49.2167,143.1167,250.81,92,10,2.37,RU,2024-02-02
217,novodvinsk,64.4165,40.8122,268.01,100,94,0.7,RU,2024-02-02
218,arraial do cabo,-22.9661,-42.0278,301.13,83,75,5.14,BR,2024-02-02
219,labytnangi,66.6572,66.4183,258.04,98,100,2.47,RU,2024-02-02
220,puerto deseado,-47.7503,-65.8938,300.73,25,66,16.49,AR,2024-02-02
221,port saint john's,-31.6229,29.5448,297.56,83,97,7.73,ZA,2024-02-02
222,ambalangoda,6.2355,80.0538,298.48,86,97,1.95,LK,2024-02-02
223,kapa'a,22.0752,-159.319,296.14,73,20,7.72,US,2024-02-02
224,sarh,9.1429,18.3923,301.67,16,0,1.94,TD,2024-02-02
225,tommot,58.9564,126.2925,245.16,100,100,1.09,RU,2024-02-02
226,cabedelo,-6.9811,-34.8339,304.52,68,100,6.78,BR,2024-02-02
227,bukama,-9.2,25.85,293.93,98,100,0.65,CD,2024-02-02
228,shitanjing,39.2342,106.3439,267.83,97,79,1.83,CN,2024-02-02
229,zeya,53.75,127.2667,245.09,97,20,1.15,RU,2024-02-02
230,severnoye,56.3491,78.3619,263.75,94,100,4.1,RU,2024-02-02
231,callao,-12.0667,-77.15,301.31,61,75,5.66,PE,2024-02-02
232,dili,-8.5586,125.5736,299.88,78,98,1.77,TL,2024-02-02
233,mujiayingzi,42.1167,118.7833,260.54,67,100,1.21,CN,2024-02-02
234,jalai nur,49.45,117.7,240.98,99,21,1.04,CN,2024-02-02
235,kijang,35.2442,129.2139,278.0,74,98,3.87,KR,2024-02-02
236,nemuro,43.3236,145.575,263.7,66,94,11.43,JP,2024-02-02
237,anloga,5.7947,0.8973,301.34,79,31,5.19,GH,2024-02-02
238,vikulovo,56.8167,70.6107,246.9,100,100,1.8,RU,2024-02-02
239,praia da vitoria,38.7333,-27.0667,290.79,94,75,3.62,PT,2024-02-02
240,sitka,57.0531,-135.33,271.09,93,40,4.12,US,2024-02-02
241,fort bragg,35.139,-79.006,293.23,44,0,4.63,US,2024-02-02
242,aghajari,30.7006,49.8315,285.0,57,8,2.61,IR,2024-02-02
243,mao,39.8885,4.2658,283.46,87,0,3.09,ES,2024-02-02
244,tucuma,-0.1833,-50.05,299.68,89,100,1.84,BR,2024-02-02
245,nova vicosa,-17.8919,-39.3719,301.22,71,100,3.72,BR,2024-02-02
246,flying fish cove,-10.4217,105.6791,298.97,88,75,2.06,CX,2024-02-02
247,ponta delgada,37.7333,-25.6667,291.59,82,20,5.14,PT,2024-02-02
248,pimentel,-6.8367,-79.9342,304.31,51,0,7.72,PE,2024-02-02
249,lebu,-37.6167,-73.65,293.17,80,41,5.13,CL,2024-02-02
250,belmonte,-15.8631,-38.8828,301.47,67,96,3.63,BR,2024-02-02
251,prince edward,44.0001,-77.2495,277.01,74,32,2.68,CA,2024-02-02
252,buncrana,55.1333,-7.45,286.02,88,100,9.61,IE,2024-02-02
253,jutai,-5.1833,-68.9,301.36,79,97,1.8,BR,2024-02-02
254,arteche,12.2645,125.4048,298.22,89,97,3.18,PH,2024-02-02
255,akureyri,65.6835,-18.0878,272.11,47,75,10.29,IS,2024-02-02
256,agat village,13.3886,144.6585,299.21,80,0,5.66,GU,2024-02-02
257,camp verde,34.5636,-111.8543,283.13,72,86,5.97,US,2024-02-02
258,alamosa,37.4695,-105.87,275.14,93,100,9.26,US,2024-02-02
259,tazovsky,67.4667,78.7,262.03,91,100,6.36,RU,2024-02-02
260,gadzhiyevo,69.2551,33.3362,260.21,95,28,4.93,RU,2024-02-02
261,rundu,-17.9333,19.7667,295.01,77,72,0.96,NA,2024-02-02
262,valdivia,-39.8142,-73.2459,296.46,58,24,3.43,CL,2024-02-02
263,korocha,50.8107,37.1953,272.55,91,9,5.94,RU,2024-02-02
264,baise city,23.8997,106.6133,295.01,99,5,0.73,CN,2024-02-02
265,victoria,22.2855,114.1577,293.68,93,100,6.71,HK,2024-02-02
266,armacao de buzios,-22.7469,-41.8817,302.18,84,100,3.52,BR,2024-02-02
267,kaifeng,34.7911,114.3483,268.79,83,100,3.85,CN,2024-02-02
268,oxford,51.7522,-1.256,285.23,89,75,6.69,GB,2024-02-02
269,sovetskoye,52.2861,85.4131,264.64,95,100,0.94,RU,2024-02-02
270,wewak,-3.5534,143.6268,298.64,88,100,3.18,PG,2024-02-02
271,westport,41.1415,-73.3579,279.66,81,100,4.63,US,2024-02-02
272,talnakh,69.4865,88.3972,258.82,91,100,7.33,RU,2024-02-02
273,sheringham,52.9408,1.2093,285.22,76,100,9.56,GB,2024-02-02
274,stawell,-37.05,142.7667,285.76,61,0,0.15,AU,2024-02-02
275,mossel bay,-34.1831,22.146,294.11,79,100,2.27,ZA,2024-02-02
276,port elizabeth,-33.918,25.5701,295.43,95,75,4.12,ZA,2024-02-02
277,lata,40.1629,-8.3327,285.66,80,59,1.17,PT,2024-02-02
278,padang,-0.9492,100.3543,299.18,90,100,0.91,ID,2024-02-02
279,vernon,50.2581,-119.2691,281.27,93,99,0.51,CA,2024-02-02
280,kencong,-8.2833,113.3667,298.75,90,100,1.58,ID,2024-02-02
281,qaqortoq,60.7167,-46.0333,257.31,77,99,0.31,GL,2024-02-02
282,angra do heroismo,38.65,-27.2167,290.99,91,75,1.79,PT,2024-02-02
283,cannonvale,-20.2833,148.7,299.81,76,100,1.54,AU,2024-02-02
284,abu dhabi,24.4667,54.3667,293.21,56,0,5.66,AE,2024-02-02
285,garachico,28.7781,-17.7646,292.86,64,0,3.09,ES,2024-02-02
286,terme,41.2092,36.9739,280.11,82,100,2.02,TR,2024-02-02
287,pangody,65.85,74.4859,259.57,92,100,5.99,RU,2024-02-02
288,ocean city,39.2776,-74.5746,279.29,89,100,3.13,US,2024-02-02
289,borovskoy,53.8,64.15,261.93,96,100,3.8,KZ,2024-02-02
290,kpandae,8.4689,-0.0113,305.75,16,0,1.96,GH,2024-02-02
291,okhotsk,59.3833,143.3,249.3,79,72,5.71,RU,2024-02-02
292,kristinestad,62.2743,21.376,272.09,98,100,7.92,FI,2024-02-02
293,ilha de mocambique,-15.0342,40.7358,300.51,82,11,5.21,MZ,2024-02-02
294,codrington,-38.2667,141.9667,282.58,88,1,2.19,AU,2024-02-02
295,misratah,32.3754,15.0925,288.34,66,1,6.72,LY,2024-02-02
296,tazacorte,28.629,-17.9293,294.34,44,0,3.09,ES,2024-02-02
297,tshabong,-26.05,22.45,302.22,26,78,3.5,BW,2024-02-02
298,tolanaro,-25.0319,46.9987,296.19,88,100,3.09,MG,2024-02-02
299,zyrya,40.3661,50.2917,275.2,72,7,2.12,AZ,2024-02-02
300,selfoss,63.9331,-20.9971,269.84,72,100,18.03,IS,2024-02-02
301,ain el bya,35.8039,-0.3018,286.42,78,0,5.15,DZ,2024-02-02
302,ravar,31.2656,56.8055,280.83,37,0,1.82,IR,2024-02-02
303,nytva,57.9404,55.334,265.09,95,100,3.69,RU,2024-02-02
304,lautoka,-17.6167,177.4667,299.07,89,40,2.57,FJ,2024-02-02
305,kawasaki,35.5206,139.7172,279.27,42,75,7.72,JP,2024-02-02
306,klyuchi,52.2667,79.1667,262.9,94,100,5.48,RU,2024-02-02
307,carnarvon,-24.8667,113.6333,297.43,84,8,3.71,AU,2024-02-02
308,yoichi,43.2039,140.7703,268.18,82,100,8.25,JP,2024-02-02
309,hinatuan,8.3722,126.3342,297.66,89,44,2.09,PH,2024-02-02
310,jhajjar,28.6063,76.6565,284.33,40,18,3.49,IN,2024-02-02
311,porangatu,-13.4408,-49.1486,300.22,78,78,1.02,BR,2024-02-02
312,ciudad lazaro cardenas,17.9583,-102.2,301.18,63,0,3.91,MX,2024-02-02
313,tabas,33.5959,56.9244,276.27,70,18,1.03,IR,2024-02-02
314,itamaraca,-7.7478,-34.8256,303.18,69,100,5.78,BR,2024-02-02
315,malango,-2.9627,119.9001,292.69,96,100,1.19,ID,2024-02-02
316,bairnsdale,-37.8333,147.6167,283.62,84,0,1.18,AU,2024-02-02
317,beni saf,35.301,-1.3823,286.31,79,0,3.96,DZ,2024-02-02
318,goondiwindi,-28.55,150.3167,297.89,62,0,4.8,AU,2024-02-02
319,patan,27.6667,85.3333,280.36,81,20,0.0,NP,2024-02-02
320,zhezqazghan,47.7833,67.7667,261.47,92,100,8.0,KZ,2024-02-02
321,ulladulla,-35.35,150.4667,291.49,77,92,1.82,AU,2024-02-02
322,huangmei,30.1924,116.025,275.64,89,100,3.42,CN,2024-02-02
323,usakos,-22.0,15.6,300.25,55,100,3.57,NA,2024-02-02
324,kamaishi,39.2667,141.8833,272.09,53,3,4.0,JP,2024-02-02
325,wuchang,44.9143,127.15,243.27,100,81,0.91,CN,2024-02-02
326,kidal,18.4411,1.4078,293.43,11,58,4.85,ML,2024-02-02
327,behbahan,30.5959,50.2417,282.84,68,7,3.49,IR,2024-02-02
328,tadine,-21.55,167.8833,299.62,87,100,5.57,NC,2024-02-02
329,manaquiri,-3.3167,-60.35,304.42,76,100,1.74,BR,2024-02-02
330,seven pagodas,12.6264,80.1722,300.18,74,100,4.66,IN,2024-02-02
331,palmerston,-12.486,130.9833,301.14,86,75,7.72,AU,2024-02-02
332,zdvinsk,54.7021,78.661,263.42,95,100,4.74,RU,2024-02-02
333,hamilton,39.1834,-84.5333,282.54,65,100,6.71,US,2024-02-02
334,geraldton,-28.7667,114.6,294.38,83,5,2.57,AU,2024-02-02
335,isla vista,34.4133,-119.861,290.34,67,40,5.14,US,2024-02-02
336,kaa-khem,51.6833,94.7333,245.6,94,98,0.81,RU,2024-02-02
337,skierniewice,51.9548,20.1584,277.63,93,100,7.82,PL,2024-02-02
338,cidreira,-30.1811,-50.2056,297.94,68,0,7.1,BR,2024-02-02
339,constantia,44.1833,28.65,276.53,70,51,4.31,RO,2024-02-02
340,masina,-4.3836,15.3914,299.11,78,57,0.52,CD,2024-02-02
341,zhongshu,24.5167,103.7667,281.86,74,0,3.05,CN,2024-02-02
342,ocana,8.2377,-73.356,297.62,69,94,1.91,CO,2024-02-02
343,villa gesell,-37.2639,-56.973,306.51,36,100,9.71,AR,2024-02-02
344,margate,51.3813,1.3862,283.08,90,86,4.02,GB,2024-02-02
345,mayya,61.7333,130.2811,237.77,100,100,0.95,RU,2024-02-02
346,mareeba,-17.0,145.4333,297.84,93,100,0.47,AU,2024-02-02
347,wellington,-41.2866,174.7756,290.36,69,0,5.66,NZ,2024-02-02
348,mutum biyu,8.6333,10.7667,299.63,19,61,3.19,NG,2024-02-02
349,les sables-d'olonne,46.6667,-1.8333,283.59,93,18,2.89,FR,2024-02-02
350,tambopata,-12.7333,-69.1833,303.09,66,0,2.06,PE,2024-02-02
351,nouadhibou,20.931,-17.0347,298.14,38,0,4.63,MR,2024-02-02
352,kone,-21.0595,164.8658,298.51,92,100,2.95,NC,2024-02-02
353,pinheiral,-22.5128,-44.0006,295.77,94,100,0.71,BR,2024-02-02
354,bhavnagar,21.7667,72.15,296.55,46,6,2.76,IN,2024-02-02
355,tanjung pandan,-2.75,107.65,298.61,91,100,3.38,ID,2024-02-02
356,st. john's,47.5649,-52.7093,273.03,82,100,0.45,CA,2024-02-02
357,tarquinia,42.2482,11.7553,284.05,61,7,2.77,IT,2024-02-02
358,aldinga beach,-35.2793,138.4604,293.5,68,0,2.03,AU,2024-02-02
359,portland,45.5234,-122.6762,286.08,70,75,3.09,US,2024-02-02
360,qarqin,37.4185,66.0436,282.15,25,97,5.22,AF,2024-02-02
361,ola,59.5833,151.2833,248.78,83,100,3.28,RU,2024-02-02
362,kilju,40.9642,129.3278,265.37,85,100,1.4,KP,2024-02-02
363,nizhniy odes,63.6445,54.856,262.76,93,100,4.53,RU,2024-02-02
364,chibougamau,49.9168,-74.3659,263.94,73,75,2.57,CA,2024-02-02
365,cherepovets,59.1333,37.9,269.05,86,100,4.0,RU,2024-02-02
366,bechar,31.6167,-2.2167,287.33,14,0,0.0,DZ,2024-02-02
367,merizo village,13.2658,144.6691,299.0,83,11,9.04,GU,2024-02-02
368,great bend,38.3645,-98.7648,289.28,67,0,5.14,US,2024-02-02
369,sao jose da coroa grande,-8.8978,-35.1478,302.13,62,53,5.15,BR,2024-02-02
370,aldan,58.6031,125.3894,244.98,100,100,1.62,RU,2024-02-02
371,mugia,43.1041,-9.2179,288.66,89,17,7.69,ES,2024-02-02
372,voskresenskoye,56.8381,45.4317,268.69,93,67,3.51,RU,2024-02-02
373,greytown,-29.0642,30.5928,289.4,96,43,0.72,ZA,2024-02-02
374,howrah,22.5892,88.3103,294.15,88,0,2.57,IN,2024-02-02
375,karratha,-20.7377,116.8463,305.23,52,100,7.31,AU,2024-02-02
376,minas de marcona,-15.2119,-75.1103,296.33,63,93,5.65,PE,2024-02-02
377,lindale,32.5157,-95.4094,293.12,75,100,5.66,US,2024-02-02
378,puerto gaitan,4.3133,-72.0816,307.02,45,100,1.9,CO,2024-02-02
379,laurel,39.0993,-76.8483,283.45,64,100,7.2,US,2024-02-02
380,meizhou,24.2977,116.1072,291.4,93,67,0.98,CN,2024-02-02
381,minggang,32.4586,114.0486,270.07,95,100,5.62,CN,2024-02-02
382,boone,39.0334,-92.3335,291.22,61,3,5.28,US,2024-02-02
383,kerikeri,-35.2268,173.9474,292.21,79,29,5.38,NZ,2024-02-02
384,fale old settlement,-9.3852,-171.2468,301.24,76,100,3.67,TK,2024-02-02
385,mili,6.0815,171.735,301.07,79,100,9.91,MH,2024-02-02
386,port douglas,-16.4833,145.4667,300.04,86,100,1.19,AU,2024-02-02
387,san antonio de pale,-1.4014,5.6325,301.31,78,94,2.99,GQ,2024-02-02
388,alexandria,31.2156,29.9553,285.45,66,93,4.95,EG,2024-02-02
389,galesong,-5.3166,119.3661,298.16,82,100,3.39,ID,2024-02-02
390,amble,55.3333,-1.5833,285.57,82,100,4.12,GB,2024-02-02
391,fort st. john,56.2499,-120.8529,267.09,93,100,3.09,CA,2024-02-02
392,susanville,40.4163,-120.653,279.72,70,75,3.09,US,2024-02-02
393,la villa del rosario,10.3258,-72.3134,305.52,50,84,5.17,VE,2024-02-02
394,kapuskasing,49.4169,-82.4331,265.2,67,75,2.57,CA,2024-02-02
395,nova sintra,14.8667,-24.7167,294.71,70,0,6.11,CV,2024-02-02
396,poplar bluff,36.757,-90.3929,292.78,57,0,1.54,US,2024-02-02
397,san andres,12.5847,-81.7006,301.16,65,75,4.63,CO,2024-02-02
398,monroeville,40.4212,-79.7881,279.35,63,100,5.14,US,2024-02-02
399,ujae,8.9322,165.7642,300.4,83,75,10.44,MH,2024-02-02
400,waddan,29.1614,16.139,284.85,35,1,2.3,LY,2024-02-02
401,dongsheng,39.8161,109.9776,263.63,81,15,2.76,CN,2024-02-02
402,villa vasquez,19.7411,-71.4464,296.64,59,99,3.82,DO,2024-02-02
403,novo aripuana,-5.1206,-60.3797,301.76,76,89,0.39,BR,2024-02-02
404,jindabyne,-36.4167,148.6333,284.48,58,0,1.34,AU,2024-02-02
405,corinto,37.9407,22.9573,283.09,58,100,1.6,GR,2024-02-02
406,urengoy,65.9667,78.3667,261.24,92,100,6.16,RU,2024-02-02
407,bollnas,61.3482,16.3946,275.86,98,100,5.09,SE,2024-02-02
408,ugoofaaru,5.6667,73.0,301.09,74,100,5.52,MV,2024-02-02
409,zakamensk,50.3741,103.2863,250.25,97,21,1.55,RU,2024-02-02
410,mount gambier,-37.8333,140.7667,281.92,90,0,1.46,AU,2024-02-02
411,preobrazheniye,42.9019,133.9064,260.34,65,0,2.85,RU,2024-02-02
412,tvoroyri,61.5556,-6.8111,278.68,76,96,19.56,FO,2024-02-02
413,inirida,3.8653,-67.9239,304.86,63,95,0.89,CO,2024-02-02
414,miri,4.4148,114.0089,298.23,100,40,2.06,MY,2024-02-02
415,tanjungtiram,4.0613,98.3699,297.97,92,75,1.48,ID,2024-02-02
416,yuzhno-kurilsk,44.0306,145.8556,265.03,64,100,14.44,RU,2024-02-02
417,san pedro pochutla,15.7333,-96.4667,302.99,53,58,4.62,MX,2024-02-02
418,levanger,63.7464,11.2996,281.18,96,100,10.2,NO,2024-02-02
419,iba,15.3667,120.0333,295.82,74,77,1.67,PH,2024-02-02
420,kavaratti,10.5669,72.642,300.19,66,100,3.42,IN,2024-02-02
421,castlegar,49.2998,-117.6689,281.09,97,100,0.82,CA,2024-02-02
422,jaen,38.0,-3.5,284.79,45,18,1.06,ES,2024-02-02
423,niafunke,15.9322,-3.9906,297.53,11,93,5.68,ML,2024-02-02
424,namtsy,62.7161,129.6658,233.8,100,79,0.56,RU,2024-02-02
425,mermoz boabab,14.7065,-17.4758,303.46,65,0,4.12,SN,2024-02-02
426,mil'kovo,55.6078,37.7956,271.42,80,100,6.65,RU,2024-02-02
427,mumbwa,-14.9783,27.0619,291.44,92,43,1.64,ZM,2024-02-02
428,revda,56.801,59.9303,258.24,98,100,2.88,RU,2024-02-02
429,galliano,29.4422,-90.2992,295.93,50,0,2.45,US,2024-02-02
430,polyarnyy,69.1989,33.4478,261.36,92,13,4.93,RU,2024-02-02
431,lodja,-3.4833,23.4333,294.19,96,100,0.31,CD,2024-02-02
432,igarka,67.4667,86.5833,259.78,95,100,8.11,RU,2024-02-02
433,tromso,69.6496,18.957,271.16,86,75,4.12,NO,2024-02-02
434,jaisalmer,26.9147,70.9181,293.27,37,100,6.05,IN,2024-02-02
435,remontnoye,46.5614,43.6501,273.69,93,100,5.8,RU,2024-02-02
436,qamdo,31.1667,97.2333,264.24,47,100,3.81,CN,2024-02-02
437,acarau,-2.8856,-40.12,303.69,63,27,7.58,BR,2024-02-02
438,manokwari,-0.8667,134.0833,298.81,84,100,2.03,ID,2024-02-02
439,barra de santo antonio,-9.4047,-35.5072,303.75,65,98,4.88,BR,2024-02-02
440,yanchep,-31.55,115.6833,299.79,63,10,3.42,AU,2024-02-02
441,yuma,32.7253,-114.6244,290.86,53,40,5.66,US,2024-02-02
442,alofi,-19.0595,-169.9187,299.09,94,75,1.03,NU,2024-02-02
443,san juan,-31.5375,-68.5364,313.17,17,0,2.93,AR,2024-02-02
444,djambala,-2.5447,14.7533,298.32,67,99,1.72,CG,2024-02-02
445,prado,-17.3411,-39.2208,301.55,67,99,3.45,BR,2024-02-02
446,rio gallegos,-51.6226,-69.2181,287.18,82,75,7.72,AR,2024-02-02
447,vadso,70.0744,29.7487,267.24,73,0,4.63,NO,2024-02-02
448,kruisfontein,-34.0033,24.7314,294.2,88,0,2.3,ZA,2024-02-02
449,kuvshinovo,57.0295,34.1725,268.12,88,100,5.39,RU,2024-02-02
450,rancho palos verdes,33.7445,-118.387,289.77,73,75,7.72,US,2024-02-02
451,boende,-0.2167,20.8667,295.7,91,100,1.85,CD,2024-02-02
452,chashniki,54.8569,29.1607,271.06,88,74,4.81,BY,2024-02-02
453,kismayo,-0.3582,42.5454,299.41,84,96,6.06,SO,2024-02-02
454,pama,11.2497,0.7075,302.15,13,0,2.61,BF,2024-02-02
455,hassi messaoud,31.6804,6.0729,285.07,40,0,1.03,DZ,2024-02-02
456,ban houayxay,20.2453,100.4547,286.65,54,0,0.79,LA,2024-02-02
457,kristiansund,63.1115,7.732,282.18,93,100,16.46,NO,2024-02-02
458,mokopane,-24.1944,29.0097,293.12,60,23,3.45,ZA,2024-02-02
459,mana,5.6592,-53.7767,300.79,60,100,3.72,GF,2024-02-02
460,sao joao da barra,-21.6403,-41.0511,302.2,82,99,4.09,BR,2024-02-02
461,fortaleza,-3.7227,-38.5247,303.75,83,75,6.69,BR,2024-02-02
462,ko pha ngan,9.7578,100.0291,297.75,76,100,2.68,TH,2024-02-02
463,raja,8.4596,25.678,294.97,19,14,1.4,SS,2024-02-02
464,mersing,2.4312,103.8405,300.1,83,20,5.14,MY,2024-02-02
465,castillos,-34.1667,-53.8333,302.49,47,0,6.57,UY,2024-02-02
466,nar'yan-mar,67.6713,53.087,267.1,89,100,10.28,RU,2024-02-02
467,agadez,19.75,10.25,287.39,18,95,3.2,NE,2024-02-02
468,caleta de carquin,-11.0925,-77.6267,299.58,72,100,4.89,PE,2024-02-02
469,hastings,50.8552,0.5729,284.25,43,100,9.07,GB,2024-02-02
470,egilsstadir,65.2653,-14.3948,271.1,69,20,8.23,IS,2024-02-02
471,byron bay,-28.65,153.6167,297.43,90,32,2.23,AU,2024-02-02
472,chandler,33.3062,-111.8412,289.59,56,40,5.66,US,2024-02-02
473,quatre cocos,-20.2078,57.7625,299.21,69,45,7.13,MU,2024-02-02
474,bataipora,-22.2953,-53.2711,309.97,21,59,2.72,BR,2024-02-02
475,nadym,65.5333,72.5167,258.9,91,100,6.08,RU,2024-02-02
476,burang,30.25,81.1667,262.2,77,7,1.33,CN,2024-02-02
477,palanga,55.9175,21.0686,276.16,93,75,7.2,LT,2024-02-02
478,cozumel,20.5083,-86.9458,300.34,69,40,2.06,MX,2024-02-02
479,kstovo,56.1473,44.1979,270.81,93,91,4.46,RU,2024-02-02
480,ilebo,-4.3167,20.5833,294.28,97,100,1.24,CD,2024-02-02
481,nivala,63.9167,24.9667,268.53,80,100,4.45,FI,2024-02-02
482,waynesville,35.4887,-82.9887,290.34,49,0,0.89,US,2024-02-02
483,mata-utu,-13.2816,-176.1745,301.17,80,100,11.29,WF,2024-02-02
484,muynoq,43.7683,59.0214,269.46,85,52,3.82,UZ,2024-02-02
485,colby,39.3958,-101.0524,278.18,100,100,5.66,US,2024-02-02
486,bereznik,62.8551,42.7072,266.31,97,100,1.96,RU,2024-02-02
487,island harbour,50.724,-1.2758,286.19,90,100,2.24,GB,2024-02-02
488,antofagasta,-23.65,-70.4,296.75,67,18,3.88,CL,2024-02-02
489,la ronge,55.1001,-105.2842,276.29,75,0,3.09,CA,2024-02-02
490,oxapampa,-10.5775,-75.4017,294.46,77,100,0.41,PE,2024-02-02
491,port macquarie,-31.4333,152.9167,296.42,79,52,3.72,AU,2024-02-02
492,thames,-37.1333,175.5333,289.07,92,100,4.01,NZ,2024-02-02
493,concepcion,-36.827,-73.0498,298.04,57,20,8.75,CL,2024-02-02
494,nyurba,63.2842,118.3319,243.68,95,84,2.47,RU,2024-02-02
495,puerto santa,-8.9906,-78.6456,299.39,73,100,4.64,PE,2024-02-02
496,santa terezinha,-29.9002,-50.0904,298.16,69,0,6.83,BR,2024-02-02
497,rhinelander,45.6366,-89.4121,278.01,48,0,4.12,US,2024-02-02
498,orito,0.6766,-76.8771,301.25,84,100,0.58,CO,2024-02-02
499,chaumont,48.1167,5.1333,278.36,90,83,2.76,FR,2024-02-02
500,sao jose de ribamar,-2.5619,-44.0542,303.36,84,100,4.77,BR,2024-02-02
501,richards bay,-28.783,32.0377,296.75,79,0,4.51,ZA,2024-02-02
502,beau vallon,-20.4189,57.6953,299.28,78,40,5.66,MU,2024-02-02
503,quang ngai,15.1167,108.8,293.45,93,7,2.09,VN,2024-02-02
504,biasca,46.3597,8.9697,285.18,61,35,4.17,CH,2024-02-02
505,itaituba,-4.2761,-55.9836,299.24,89,75,4.12,BR,2024-02-02
506,cockburn town,21.4612,-71.1419,295.6,55,14,2.43,TC,2024-02-02
507,petropavlivka,48.4564,36.4367,272.17,83,58,3.43,UA,2024-02-02
508,murghob,38.1702,73.9667,254.74,54,100,3.2,TJ,2024-02-02
509,kiunga,-6.1219,141.2906,297.02,99,100,0.78,PG,2024-02-02
510,menongue,-14.6585,17.691,291.47,96,100,2.02,AO,2024-02-02
511,kampong chhnang,12.1667,104.55,298.59,67,71,2.46,KH,2024-02-02
512,sauri,11.7266,6.7837,295.76,16,0,4.72,NG,2024-02-02
513,slonim,53.0867,25.3219,274.23,93,100,4.37,BY,2024-02-02
514,midvagur,62.0511,-7.1939,278.61,65,100,17.49,FO,2024-02-02
515,tucacas,10.7906,-68.3258,301.15,73,38,3.97,VE,2024-02-02
516,twon-brass,4.3151,6.2418,301.06,84,100,5.16,NG,2024-02-02
517,sidrolandia,-20.9319,-54.9614,310.77,17,4,3.92,BR,2024-02-02
518,piacabucu,-10.4056,-36.4344,302.43,60,73,5.85,BR,2024-02-02
519,swakopmund,-22.6833,14.5333,293.62,89,100,0.45,NA,2024-02-02
520,strezhevoy,60.7333,77.5889,254.8,99,84,2.68,RU,2024-02-02
521,astoria,46.1879,-123.8313,285.44,66,20,4.92,US,2024-02-02
522,zapala,-38.8992,-70.0544,302.88,12,0,11.24,AR,2024-02-02
523,petrosino,37.7077,12.4999,284.18,77,1,5.64,IT,2024-02-02
524,aguadilla,18.4275,-67.1541,300.89,68,75,3.6,PR,2024-02-02
525,kabalo,-6.05,26.9167,293.32,97,87,1.13,CD,2024-02-02
526,aoulef,26.9667,1.0833,290.78,12,0,4.3,DZ,2024-02-02
527,klaksvik,62.2266,-6.589,278.66,77,25,19.03,FO,2024-02-02
528,emboscada,-25.15,-57.35,312.51,35,20,3.09,PY,2024-02-02
529,temerluh,3.4506,102.4176,298.7,99,100,0.16,MY,2024-02-02
530,ostashkov,57.1467,33.1075,268.05,90,99,4.54,RU,2024-02-02
531,alaghsas,17.0187,8.0168,291.73,16,98,6.6,NE,2024-02-02
532,lerwick,60.1545,-1.1494,282.15,77,12,15.01,GB,2024-02-02
533,nuku'alofa,-21.1333,-175.2,299.34,100,75,1.03,TO,2024-02-02
534,lins,-21.6786,-49.7425,308.01,26,97,3.24,BR,2024-02-02
535,el matama,16.7095,33.3565,291.83,15,0,5.92,SD,2024-02-02
536,okahandja,-21.9833,16.9167,295.81,66,56,4.31,NA,2024-02-02
537,vila franca do campo,37.7167,-25.4333,291.42,99,8,3.73,PT,2024-02-02
538,sarkand,45.41,79.9186,261.04,75,6,3.59,KZ,2024-02-02
539,aykhal,66.0,111.5,245.68,71,61,1.81,RU,2024-02-02
540,hilo,19.7297,-155.09,297.73,89,100,5.66,US,2024-02-02
541,bichura,50.5881,107.6022,250.25,96,22,1.0,RU,2024-02-02
542,beitbridge,-22.2167,30.0,299.72,39,61,4.22,ZW,2024-02-02
543,aden,12.7794,45.0367,298.29,78,7,2.33,YE,2024-02-02
544,calca,-13.3333,-71.95,294.79,63,100,2.9,PE,2024-02-02
545,imbituba,-28.24,-48.6703,299.18,63,8,4.37,BR,2024-02-02
546,waingapu,-9.6567,120.2641,299.17,84,76,2.5,ID,2024-02-02
547,zyryanovsk,49.7386,84.2719,263.67,96,100,1.31,KZ,2024-02-02
548,minab,27.1467,57.0801,292.83,62,66,11.27,IR,2024-02-02
549,at-bashi,41.1702,75.8106,254.04,64,3,1.52,KG,2024-02-02
550,big bend,-26.8167,31.9333,298.2,73,6,0.0,SZ,2024-02-02
551,lagos,6.5833,3.75,302.33,76,6,2.45,NG,2024-02-02
552,saipan,15.1355,145.701,299.54,73,40,7.2,MP,2024-02-02
553,corum,40.5,34.75,274.19,58,100,0.72,TR,2024-02-02
554,baruun-urt,46.6806,113.2792,243.47,97,33,1.78,MN,2024-02-02
555,la'ie,21.6477,-157.9253,295.13,78,83,2.24,US,2024-02-02
556,zhuangyuan,37.2975,120.8256,269.32,61,100,1.95,CN,2024-02-02
557,pelabuhanratu,-6.9875,106.5514,298.9,88,100,0.36,ID,2024-02-02
558,lawton,34.6087,-98.3903,289.28,82,100,6.17,US,2024-02-02
559,rey bouba,8.6724,14.1786,298.84,17,26,2.46,CM,2024-02-02
560,port blair,11.6667,92.75,299.17,89,20,1.03,IN,2024-02-02
561,tipasa,36.5897,2.4475,285.16,86,27,1.1,DZ,2024-02-02
562,darnah,32.767,22.6367,287.13,61,100,4.07,LY,2024-02-02
563,trumann,35.6737,-90.5073,292.35,64,100,3.15,US,2024-02-02
564,mitsamiouli,-11.3847,43.2844,300.87,77,86,2.27,KM,2024-02-02
565,sao felix do xingu,-6.6447,-51.995,296.3,99,100,0.29,BR,2024-02-02
566,puerto leguizamo,-0.1934,-74.7819,302.23,80,94,0.95,CO,2024-02-02
567,askiz,53.1319,90.5264,260.77,92,100,1.27,RU,2024-02-02
568,new norfolk,-42.7826,147.0587,283.87,96,13,1.68,AU,2024-02-02
569,roghun,38.7826,69.8708,266.5,68,100,4.91,TJ,2024-02-02
570,chernyshevsk,52.5243,117.0174,239.75,100,39,0.37,RU,2024-02-02
